stop_name,stop_lat,stop_lon,stop_id,stop_desc,zone_id,location_type,parent_station,platform_code
150 feet Jamnagar road crossing,22.33980835,70.8089299,491,150 feet Jamnagar road crossing,A,1,491,1
150 feet Ring Road (Bedi Bypass),22.3285884,70.87060472,1288,150 feet Ring Road (Bedi Bypass),A,1,1288,1
150 feet Ring Road (Raiya Road Crossing),22.30409862,70.7276521,1377,150 feet Ring Road (Raiya Road Crossing),A,1,1377,1
150 feet crossing - bhavnagar road,22.245622,70.885282,1586,150 feet crossing - bhavnagar road,A,1,1586,1
150 feet road crossing - kalawad road,22.270775,70.74561,102,150 feet road crossing - kalawad road,A,1,102,1
150 fit ring road crossing (Aims road),22.34042405,70.77762956,1429,150 fit ring road crossing (Aims road),A,1,1429,1
150ft ring road Crossing,22.28582307,70.73562638,1558,150ft ring road Crossing,A,1,1558,1
2nd ring road crossing,22.26638572,70.74905194,1250,2nd ring road crossing,A,1,1250,1
2nd ring road crossing SARDAR CHOWK,22.19973263,70.82165224,1011,2nd ring road crossing SARDAR CHOWK,A,1,1011,1
A.G. Society,22.276305,70.75981,106,A.G. Society,A,1,106,1
A.G. Staff Quarter,22.28151,70.75078,381,A.G. Staff Quarter,A,1,381,1
AG park,22.279504,70.84629813,1405,AG park,A,1,1405,1
AIIM Hospital,22.3711,70.7492,523,AIIM Hospital,A,1,523,1
AIIM Hospital Circle,22.3492,70.7491,525,AIIM Hospital Circle,A,1,525,1
AIIM Hospital Gate,22.3735,70.7462,524,AIIM Hospital Gate,A,1,524,1
AIIMS Hospital,22.37108,70.74915,1388,AIIMS Hospital,A,1,1388,1
AIIMS Hospital Circle,22.34916444,70.74908469,1390,AIIMS Hospital Circle,A,1,1390,1
AIIMS Hospital Crossing,22.34040255,70.77786613,1273,AIIMS Hospital Crossing,A,1,1273,1
AIIMS Hospital Gate,22.37353,70.74621,1389,AIIMS Hospital Gate,A,1,1389,1
AKSHAR PARISHAR,22.24925098,70.76943811,1536,AKSHAR PARISHAR,A,1,1536,1
AV Jasani TB Hospital,22.21428,70.80132,7,AV Jasani TB Hospital,A,1,7,1
Aadarsh Shivalaya Society,22.2297351,70.8178093,1015,Aadarsh Shivalaya Society,A,1,1015,1
Aaji 66 kv Station (aaji vasahat road crossing),22.27270763,70.82988153,377,Aaji 66 kv Station (aaji vasahat road crossing),A,1,377,1
Aambedkar Nagar,22.28386172,70.82277789,150,Aambedkar Nagar,A,1,150,1
Aarti Industrial Area,22.275025,70.851605,141,Aarti Industrial Area,A,1,141,1
Aastha Resi./Rameshwer Park,22.32562,70.792695,30,Aastha Resi./Rameshwer Park,A,1,30,1
Aditya 79 Housing Co. Opearating Service Society,22.27542141,70.73107144,1555,Aditya 79 Housing Co. Opearating Service Society,A,1,1555,1
Agricultural Science Centre/Targhdi,22.3417872,70.9110196,1285,Agricultural Science Centre/Targhdi,A,1,1285,1
Ahir Chowk,22.261585,70.804715,363,Ahir Chowk,A,1,363,1
Aji G.I.D.C.,22.28381,70.822815,149,Aji G.I.D.C.,A,1,149,1
Aji Vasahat,22.275705,70.83248,378,Aji Vasahat,A,1,378,1
Ajidam,22.27814529,70.83593937,146,Ajidam,A,1,146,1
Akashwani Chowk,22.287615,70.75939,158,Akashwani Chowk,A,1,158,1
Alap Green City,22.300905,70.757075,347,Alap Green City,A,1,347,1
Alap Heritage,22.27612,70.77138,327,Alap Heritage,A,1,327,1
Alkapuri,22.29978,70.778215,204,Alkapuri,A,1,204,1
Ambaji Kadva Plot,22.26849,70.796285,309,Ambaji Kadva Plot,A,1,309,1
Ambedkar Nagar RMTS,22.25542801,70.78854173,1508,Ambedkar Nagar RMTS,A,1,1508,1
Amrut Park Main Road,22.30540811,70.75795516,1188,Amrut Park Main Road,A,1,1188,1
Anand Bunglow Chowk,22.27291,70.79368,424,Anand Bunglow Chowk,A,1,424,1
Arpit eng. Collage (Hadala Gam),22.435485,70.78159,482,Arpit eng. Collage (Hadala Gam),A,1,482,1
Aryanagar - Pedak road,22.3051,70.823225,340,Aryanagar - Pedak road,A,1,340,1
Aryasamaj,22.28721,70.80102,19,Aryasamaj,A,1,19,1
Astha Green City,22.1991,70.800175,5,Astha Green City,A,1,5,1
Astha Residency,22.33474087,70.73971714,228,Astha Residency,A,1,228,1
Astha sangrila,22.343471,70.78442839,1275,Astha sangrila,A,1,1275,1
Astron Chowk/Mahavir Chowk,22.291485,70.78801,115,Astron Chowk/Mahavir Chowk,A,1,115,1
Astron Society,22.284605,70.78161,293,Astron Society,A,1,293,1
Atal Sarovar Entrance Gate,22.3183505,70.72821653,1212,Atal Sarovar Entrance Gate,A,1,1212,1
Atmiya College/Central School,22.2831,70.767685,109,Atmiya College/Central School,A,1,109,1
Axar city,22.27844272,70.84158617,1402,Axar city,A,1,1402,1
Ayodhya Chowk,22.32278356,70.76793387,1270,Ayodhya Chowk,A,1,1270,1
Azad Chowk,22.29918,70.781305,203,Azad Chowk,A,1,203,1
B T Savani hospital,22.2874,70.7522,123,B T Savani hospital,A,1,123,1
B.T.Savani (Kidney) Hospital,22.28761214,70.75289519,160,B.T.Savani (Kidney) Hospital,A,1,160,1
Babariya Colony,22.264375,70.80519,362,Babariya Colony,A,1,362,1
Bage mahamadpark,22.2235588,70.7920847,1079,Bage mahamadpark,A,1,1079,1
Bahumadi bhavan,22.3025,70.793225,202,Bahumadi bhavan,A,1,202,1
BajrangWadi,22.319005,70.78461,214,BajrangWadi,A,1,214,1
BajrangWadi circle,22.317615,70.77998,398,BajrangWadi circle,A,1,398,1
Balaji steel,22.23406598,70.80181518,1308,Balaji steel,A,1,1308,1
BalajiPark/Satelite Park,22.2947,70.75861,345,BalajiPark/Satelite Park,A,1,345,1
Balak Hanuman Chowk,22.30371997,70.8195009,341,Balak Hanuman Chowk,A,1,341,1
Bapa Sitaram Chowk,22.274194,70.77521005,265,Bapa Sitaram Chowk,A,1,265,1
Bapa Sitaram Chowk Crossing,22.26237966,70.78223254,1235,Bapa Sitaram Chowk Crossing,A,1,1235,1
Bedi marketing yard,22.35232,70.80481,489,Bedi marketing yard,A,1,489,1
Bedi village,22.346285,70.80821,490,Bedi village,A,1,490,1
Bhagirath Society - Marketing Yard,22.304975,70.82988,336,Bhagirath Society - Marketing Yard,A,1,336,1
Bhaktinagar Circle,22.28021,70.80219,42,Bhaktinagar Circle,A,1,42,1
Bhaktinagar Station,22.28298,70.79479,473,Bhaktinagar Station,A,1,473,1
Bharad Engineering College,22.236775,70.90148,133,Bharad Engineering College,A,1,133,1
Bhimrav Nagar,22.276175,70.84248,144,Bhimrav Nagar,A,1,144,1
Bhimrav Nagar/Om Residency,22.270225,70.76108,456,Bhimrav Nagar/Om Residency,A,1,456,1
Bhomeshvar,22.31302307,70.79016724,1568,Bhomeshvar,A,1,1568,1
Bhomeshvar (madadev temple),22.31357749,70.78804307,1567,Bhomeshvar (madadev temple),A,1,1567,1
Bhomeshwer,22.31301083,70.79018568,1424,Bhomeshwer,A,1,1424,1
Bhomeshwer/Airport,22.31648,70.787685,212,Bhomeshwer/Airport,A,1,212,1
Brahmani Hall,22.25678,70.81671,67,Brahmani Hall,A,1,67,1
Brahmasamaj Chowk,22.301,70.7717,206,Brahmasamaj Chowk,A,1,206,1
Buddha Vihar,22.25930249,70.73401892,520,Buddha Vihar,A,1,520,1
C.M. Avash  (Munjka),22.29123384,70.73153995,1209,C.M. Avash  (Munjka),A,1,1209,1
CDS BIPIN RAVAT UNDER BRIDGE,22.28351875,70.78935664,1465,CDS BIPIN RAVAT UNDER BRIDGE,A,1,1465,1
Central Ware House,22.32452333,70.79605,31,Central Ware House,A,1,31,1
Champak Nagar - Pani no Ghodo,22.30312674,70.81734399,342,Champak Nagar - Pani no Ghodo,A,1,342,1
Chandra Dileswar Mahadev Road,22.32701422,70.73501677,1214,Chandra Dileswar Mahadev Road,A,1,1214,1
Chandrana Marketing,22.3232719,70.8488001,1292,Chandrana Marketing,A,1,1292,1
Chaudhary High School,22.3020831,70.79837658,232,Chaudhary High School,A,1,232,1
Chitralekha Chowk,22.29658,70.795985,130,Chitralekha Chowk,A,1,130,1
Chunarvad Chowk,22.29370814,70.8202912,332,Chunarvad Chowk,A,1,332,1
Copper Elegance,22.26432859,70.76541453,1228,Copper Elegance,A,1,1228,1
Copper Sand,22.26139654,70.76987731,1230,Copper Sand,A,1,1230,1
Cosmoplex Cinema,22.270285,70.741985,101,Cosmoplex Cinema,A,1,101,1
Court yard,22.254185,70.76431567,417,Court yard,A,1,417,1
Crystal Mall,22.279805,70.763895,108,Crystal Mall,A,1,108,1
Deluxe Cinema Chowk,22.305891,70.811706,1128,Deluxe Cinema Chowk,A,1,1128,1
Devpara,22.27359,70.812585,48,Devpara,A,1,48,1
Dharamshi Korat Chowk,22.27131,70.752149,1253,Dharamshi Korat Chowk,A,1,1253,1
Dharmendrasinhji College,22.2911,70.79322,172,Dharmendrasinhji College,A,1,172,1
Doshi Hospital- Shivnagar,22.264805,70.7998,14,Doshi Hospital- Shivnagar,A,1,14,1
Dr.Bhimrav ambedkar Chowk,22.30410999,70.80249374,39,Dr.Bhimrav ambedkar Chowk,A,1,39,1
Drainage pumping Station (Raiya),22.2998458,70.74220171,351,Drainage pumping Station (Raiya),A,1,351,1
Dream City,22.311228,70.756259,1190,Dream City,A,1,1190,1
Dream city,22.25424717,70.77322479,420,Dream city,A,1,420,1
Dudheshvar Mahadev,22.3003,70.82978,249,Dudheshvar Mahadev,A,1,249,1
Dwarkadhish chowk,22.2607244,70.76278372,283,Dwarkadhish chowk,A,1,283,1
Everest Park,22.274015,70.757295,105,Everest Park,A,1,105,1
Field Marshal Chowk,22.28447536,70.82646377,148,Field Marshal Chowk,A,1,148,1
Fuliya Hanuman Temple,22.2699,70.789025,262,Fuliya Hanuman Temple,A,1,262,1
Fullchhab Chowk,22.29859,70.793895,129,Fullchhab Chowk,A,1,129,1
Fulwadi,22.27104867,70.77688233,530,Fulwadi,A,1,530,1
G-road crossing,22.32471772,70.73241482,1213,G-road crossing,A,1,1213,1
G.I.D.C. Gate 1,22.24958,70.681225,92,G.I.D.C. Gate 1,A,1,92,1
G.I.D.C. Gate 2,22.249,70.679625,91,G.I.D.C. Gate 2,A,1,91,1
G.I.D.C. Gate 3,22.246775,70.67358,90,G.I.D.C. Gate 3,A,1,90,1
Gadhiyanagar,22.30022,70.82821,250,Gadhiyanagar,A,1,250,1
Ganga Gate,22.1530478,70.7905703,1344,Ganga Gate,A,1,1344,1
Ganjanand Chowk,22.3063736,70.7577155,1189,Ganjanand Chowk,A,1,1189,1
Gauridad Village,22.397115,70.794595,486,Gauridad Village,A,1,486,1
Gayatridham,22.324425,70.776485,216,Gayatridham,A,1,216,1
Ghanshyam Nagar/Nanda Hall,22.2693,70.813185,49,Ghanshyam Nagar/Nanda Hall,A,1,49,1
Ghanteshvar S.R.P. Camp (Main Gate),22.33020699,70.73669345,511,Ghanteshvar S.R.P. Camp (Main Gate),A,1,511,1
Ghanteshwar SRP Camp Road Crossing,22.340695,70.7443,226,Ghanteshwar SRP Camp Road Crossing,A,1,226,1
Giriraj Bungalows,22.337831,70.819434,1552,Giriraj Bungalows,A,1,1552,1
Global Chowk,22.2055474,70.8004089,1075,Global Chowk,A,1,1075,1
Gokul Park,22.253175,70.818085,68,Gokul Park,A,1,68,1
Goldcoin Angel Co.,22.15280847,70.85289448,1002,Goldcoin Angel Co.,A,1,1002,1
Golden Heights,22.3181265,70.7658073,1132,Golden Heights,A,1,1132,1
Gondal Chowk (RMTS),22.24302,70.79999,9,Gondal Chowk (RMTS),A,1,9,1
Gondal Chowkdi,22.24373857,70.79911256,1491,Gondal Chowkdi,A,1,1491,1
Gopalnagar Choro,22.273605,70.80028,307,Gopalnagar Choro,A,1,307,1
Govani Hostel,22.2665,70.76212,285,Govani Hostel,A,1,285,1
Goverdhan Chowk (RMTS),22.25119,70.79112,1509,Goverdhan Chowk (RMTS),A,1,1509,1
Government Engineering College,22.244595,70.743015,517,Government Engineering College,A,1,517,1
Government Polytechnic,22.280915,70.833975,147,Government Polytechnic,A,1,147,1
Govind Baug,22.300175,70.821425,251,Govind Baug,A,1,251,1
Govindnagar,22.266605,70.813885,50,Govindnagar,A,1,50,1
Gramudhyog Mandir Pedak,22.30756251,70.82840358,338,Gramudhyog Mandir Pedak,A,1,338,1
Grand Central Mall,22.277705,70.781115,292,Grand Central Mall,A,1,292,1
Green Leaf Club,22.33780969,70.73527947,1217,Green Leaf Club,A,1,1217,1
Greenland Chowk,22.31153218,70.82922994,56,Greenland Chowk,A,1,56,1
Gujrat Houseing Board - aavas yojna (Rangoli park),22.264664,70.743223,519,Gujrat Houseing Board - aavas yojna (Rangoli park),A,1,519,1
Gundawadi Police Chowki,22.288715,70.807805,65,Gundawadi Police Chowki,A,1,65,1
Gurudev Park,22.28066,70.8021,58,Gurudev Park,A,1,58,1
Guruji Aavas Yojna,22.29811,70.7577,346,Guruji Aavas Yojna,A,1,346,1
Gurukul,22.2765219,70.8002402,306,Gurukul,A,1,306,1
Hadala gam patiyu/Darshan eng. Collage,22.42821,70.781475,483,Hadala gam patiyu/Darshan eng. Collage,A,1,483,1
Hanuman Madhi,22.300415,70.775095,205,Hanuman Madhi,A,1,205,1
Haripar Village,22.2652,70.71588,97,Haripar Village,A,1,97,1
Hemadri,22.26024994,70.77491277,1232,Hemadri,A,1,1232,1
Hemugadhavi Hall,22.2894,70.78969,116,Hemugadhavi Hall,A,1,116,1
Hinglajnagar (bharvad Chowk),22.287005,70.78011,294,Hinglajnagar (bharvad Chowk),A,1,294,1
Hudco Police Chowki,22.26292,70.814625,51,Hudco Police Chowki,A,1,51,1
I.O.C.,22.38838,70.797795,487,I.O.C.,A,1,487,1
I.P.Mission School,22.3044,70.803785,38,I.P.Mission School,A,1,38,1
ITI (Disable),22.2846872,70.7525919,124,ITI (Disable),A,1,124,1
ITI (Khirasara),22.23407988,70.65289219,87,ITI (Khirasara),A,1,87,1
Indira Circle,22.28871075,70.77172605,154,Indira Circle,A,1,154,1
Indraprasth Society,22.32648,70.81979,494,Indraprasth Society,A,1,494,1
Indraprasth Society /Morby Road crossing,22.32571435,70.8203795,1315,Indraprasth Society /Morby Road crossing,A,1,1315,1
Indubai Mahasatiji Chowk - Kotecha Chowk,22.2907,70.7791,112,Indubai Mahasatiji Chowk - Kotecha Chowk,A,1,112,1
Iswar residency,22.20835839,70.81851418,1013,Iswar residency,A,1,1013,1
J D Industrial Area,22.15710919,70.85201154,1003,J D Industrial Area,A,1,1003,1
J K. Industrial Zone,22.14733848,70.85388458,1001,J K. Industrial Zone,A,1,1001,1
JIVRAJPARK-1 STREET NO. 1,22.32086384,70.81806401,1317,JIVRAJPARK-1 STREET NO. 1,A,1,1317,1
Jagnath Temple,22.293285,70.79132,171,Jagnath Temple,A,1,171,1
Jagruti Shramjivi Society,22.31362621,70.7880426,1423,Jagruti Shramjivi Society,A,1,1423,1
Jagrutideep Heights,22.31589003,70.765965,1133,Jagrutideep Heights,A,1,1133,1
Jai Babari Chowk,22.326761,70.822238,1547,Jai Babari Chowk,A,1,1547,1
Jai Jawan Jai kisan Society,22.32271,70.822775,495,Jai Jawan Jai kisan Society,A,1,495,1
Jalaram Chowk (Gayatrinagar Road),22.2771,70.804485,358,Jalaram Chowk (Gayatrinagar Road),A,1,358,1
Jalaram Chowk - Santkabir Road Corner,22.300015,70.814495,253,Jalaram Chowk - Santkabir Road Corner,A,1,253,1
Jamtower Chowk,22.30769,70.797495,445,Jamtower Chowk,A,1,445,1
Janakpuri - Ajanta Park,22.2921,70.759915,344,Janakpuri - Ajanta Park,A,1,344,1
Jangalesvara Crossing / Bapunagar,22.282785,70.81689,152,Jangalesvara Crossing / Bapunagar,A,1,152,1
Jasani School,22.270805,70.800425,308,Jasani School,A,1,308,1
Jay Bhavani Chowk,22.31567856,70.77363729,1564,Jay Bhavani Chowk,A,1,1564,1
Jaybharat Primary School,22.24391062,70.7930602,1085,Jaybharat Primary School,A,1,1085,1
Jilla Garden Chowk,22.288785,70.81381,330,Jilla Garden Chowk,A,1,330,1
Jilla Panchayat Chowk,22.2983,70.7914,128,Jilla Panchayat Chowk,A,1,128,1
Jitariya Hanuman Temple,22.2635569,70.78345331,264,Jitariya Hanuman Temple,A,1,264,1
Jivan Jyot School,22.287795,70.76229,157,Jivan Jyot School,A,1,157,1
Jivraj Hospital,22.272285,70.804375,359,Jivraj Hospital,A,1,359,1
Jubeli baug,22.300105,70.801285,40,Jubeli baug,A,1,40,1
Junction Railway police station,22.31258,70.802155,296,Junction Railway police station,A,1,296,1
Junction police choki,22.31413667,70.80181,35,Junction police choki,A,1,35,1
K. K.dholkiya school,22.31977131,70.82046865,1333,K. K.dholkiya school,A,1,1333,1
K.K.V hall,22.28572,70.771115,110,K.K.V hall,A,1,110,1
Kadvibai School,22.2835,70.80048,1035,Kadvibai School,A,1,1035,1
Kalashdhara Park,22.30475688,70.75811109,1187,Kalashdhara Park,A,1,1187,1
Kalipat,22.24299,70.89022,135,Kalipat,A,1,135,1
Kankot - Kalawad Road,22.2693,70.735295,100,Kankot - Kalawad Road,A,1,100,1
Kanta Stri Vikas Gruh,22.2843,70.801085,41,Kanta Stri Vikas Gruh,A,1,41,1
Kavikalapi Township/ Aarsh Vidhya Mandir,22.28536661,70.73869614,1559,Kavikalapi Township/ Aarsh Vidhya Mandir,A,1,1559,1
Kesari Hindpul,22.30518052,70.80657549,61,Kesari Hindpul,A,1,61,1
Khirasara Gam Chowkdi,22.23758,70.6544,88,Khirasara Gam Chowkdi,A,1,88,1
Khodal Chowk,22.245794,70.786408,1531,Khodal Chowk,A,1,1531,1
Khodiyar Chowk,22.21812267,70.79356195,1078,Khodiyar Chowk,A,1,1078,1
Khodiyar chowk,22.2324462,70.8050786,1304,Khodiyar chowk,A,1,1304,1
Khodiyar chowk Lothada,22.1702191,70.8480638,1005,Khodiyar chowk Lothada,A,1,1005,1
Khokhadadad gam,22.19504427,70.8267471,1010,Khokhadadad gam,A,1,1010,1
Khokhaldad,22.20502,70.80061,6,Khokhaldad,A,1,6,1
Kishanpara Chowk,22.298005,70.7876,127,Kishanpara Chowk,A,1,127,1
Korat Chowk,22.19471378,70.79978584,4,Korat Chowk,A,1,4,1
Kotharia Gam Talukashala,22.237882,70.81729,72,Kotharia Gam Talukashala,A,1,72,1
Kotharia Village/Jai Bhawani Chowk,22.23571617,70.81733443,73,Kotharia Village/Jai Bhawani Chowk,A,1,73,1
Kothariya Chowk,22.25829,70.81599,52,Kothariya Chowk,A,1,52,1
Kothariya Colony,22.2811,70.807375,44,Kothariya Colony,A,1,44,1
Kothariya Gam,22.23411,70.81762,74,Kothariya Gam,A,1,74,1
Kothariya Housing,22.24378,70.81772,70,Kothariya Housing,A,1,70,1
Kothariya Solavant fatak,22.224871,70.803182,1301,Kothariya Solavant fatak,A,1,1301,1
Kothariya Solvant,22.2247,70.802425,1353,Kothariya Solvant,A,1,1353,1
Kothariya Solvant fatak,22.22479992,70.80319554,1174,Kothariya Solvant fatak,A,1,1174,1
Kothi compound,22.30770275,70.80329663,37,Kothi compound,A,1,37,1
Krishna Bungalows-3 (Sadhuvaswani Kunj Road Crossing),22.34306986,70.78100887,1274,Krishna Bungalows-3 (Sadhuvaswani Kunj Road Crossing),A,1,1274,1
Krishna International School,22.249175,70.878915,137,Krishna International School,A,1,137,1
Krishna Waterpark,22.3468502,70.9255818,1284,Krishna Waterpark,A,1,1284,1
Krishna motar,22.2274191,70.8028289,1302,Krishna motar,A,1,1302,1
Krishna park,22.31803488,70.81720328,1318,Krishna park,A,1,1318,1
Kuvadava Police Chowki,22.31411,70.83468,55,Kuvadava Police Chowki,A,1,55,1
Kuwadwa GIDC,22.3690274,70.9569989,1281,Kuwadwa GIDC,A,1,1281,1
Kuwadwa Police Station,22.32454982,70.85134208,1291,Kuwadwa Police Station,A,1,1291,1
Kuwadwagam,22.3620217,70.9437413,1282,Kuwadwagam,A,1,1282,1
LIC office,22.29366664,70.78622298,114,LIC office,A,1,114,1
Labhubhai eng. Collage,22.24704645,70.73912116,518,Labhubhai eng. Collage,A,1,518,1
Lakheshwar Society - R.T.O. Office,22.303915,70.830415,337,Lakheshwar Society - R.T.O. Office,A,1,337,1
Laxman Township,22.26279,70.766485,416,Laxman Township,A,1,416,1
Light House (Raiya) BRTS,22.30205179,70.73528618,1378,Light House (Raiya) BRTS,A,1,1378,1
Light House Crossing,22.30744693,70.72773461,1211,Light House Crossing,A,1,1211,1
Limda Chowk,22.29641,70.79878,131,Limda Chowk,A,1,131,1
Lothada gam,22.17385173,70.84645126,1006,Lothada gam,A,1,1006,1
Madhapar Chowk,22.32866351,70.76931078,1271,Madhapar Chowk,A,1,1271,1
Madhapar Chowk (BRTS),22.32878,70.76908909,1570,Madhapar Chowk (BRTS),A,1,1570,1
Madhapar Chowk (RMTS),22.33161,70.77132,1393,Madhapar Chowk (RMTS),A,1,1393,1
Madhapar Gaam,22.33212686,70.76897952,220,Madhapar Gaam,A,1,220,1
Madhapar Gaam Gate,22.34461583,70.76694065,410,Madhapar Gaam Gate,A,1,410,1
Madhunagar/Rajnagar Society,22.27542,70.78669,259,Madhunagar/Rajnagar Society,A,1,259,1
Mahaavir ind. Area,22.18836765,70.83399602,1008,Mahaavir ind. Area,A,1,1008,1
Mahika village,22.27264825,70.88041117,1158,Mahika village,A,1,1158,1
Mahila ITI,22.28593919,70.7525475,1259,Mahila ITI,A,1,1259,1
Makkam Chowk,22.27958,70.799225,16,Makkam Chowk,A,1,16,1
Malaviya Chowk,22.29229,70.799025,119,Malaviya Chowk,A,1,119,1
Maldhari Society,22.30647161,70.83081264,1575,Maldhari Society,A,1,1575,1
Maldhari railway fatak,22.23928892,70.80041143,1309,Maldhari railway fatak,A,1,1309,1
Malyasan,22.331441,70.8795692,1287,Malyasan,A,1,1287,1
Manda Dungar,22.278695,70.84968,1151,Manda Dungar,A,1,1151,1
Manhar Pura (150 feet ring road),22.3385141,70.7764052,1272,Manhar Pura (150 feet ring road),A,1,1272,1
Manharpura - Bedinaka Fire Station,22.297495,70.815515,500,Manharpura - Bedinaka Fire Station,A,1,500,1
Mansarovar Society,22.27702,70.838605,145,Mansarovar Society,A,1,145,1
Marketing Yard,22.300515,70.832405,248,Marketing Yard,A,1,248,1
Maruti travels,22.28134534,70.84073219,1403,Maruti travels,A,1,1403,1
Marutinagar (Sarvoday Housing Society),22.1666,70.794215,1,Marutinagar (Sarvoday Housing Society),A,1,1,1
Marutinagar 50ft Road Chowk,22.31092,70.82649,57,Marutinagar 50ft Road Chowk,A,1,57,1
Marwadi College,22.367815,70.79962,488,Marwadi College,A,1,488,1
Masoom School Mota Mauva,22.26759248,70.75308891,1251,Masoom School Mota Mauva,A,1,1251,1
Mavdi Chokdi (RMTS),22.26482,70.784605,263,Mavdi Chokdi (RMTS),A,1,263,1
Mavdi Fire Station,22.270815,70.790205,261,Mavdi Fire Station,A,1,261,1
Mavdi Gam,22.256395,70.779315,422,Mavdi Gam,A,1,422,1
Mavdi Police Head quarter,22.2635648,70.7681934,1229,Mavdi Police Head quarter,A,1,1229,1
Mayani Chowk,22.274105,70.7874,260,Mayani Chowk,A,1,260,1
Metoda crossing,22.229495,70.65798,89,Metoda crossing,A,1,89,1
Mota Mauva,22.27152,70.753775,104,Mota Mauva,A,1,104,1
Mukhyamantri Aavsh Quarter,22.34024458,70.7984902,1276,Mukhyamantri Aavsh Quarter,A,1,1276,1
Naathdwara Park,22.31176926,70.82019401,1321,Naathdwara Park,A,1,1321,1
Nadoda Nagar,22.259895,70.817605,374,Nadoda Nagar,A,1,374,1
Nagarik Bank,22.28057999,70.80020608,1488,Nagarik Bank,A,1,1488,1
Nagrik bank,22.28027,70.8002,17,Nagrik bank,A,1,17,1
Nana Mava Chowk (RMTS),22.2757,70.7776,291,Nana Mava Chowk (RMTS),A,1,291,1
Nanavati Chowk (RMTS),22.3053,70.76811,208,Nanavati Chowk (RMTS),A,1,208,1
Naranka Gram,22.11953768,70.85729443,1000,Naranka Gram,A,1,1000,1
Narsinh Mehta Garden,22.28939,70.793085,117,Narsinh Mehta Garden,A,1,117,1
New Subhasnagar,22.26528,70.81151,366,New Subhasnagar,A,1,366,1
New Thorala,22.2879895,70.8262205,503,New Thorala,A,1,503,1
Nilkanth Cinema,22.275915,70.812185,47,Nilkanth Cinema,A,1,47,1
Nirmala Convent School,22.29718749,70.77630984,534,Nirmala Convent School,A,1,534,1
Nyara Gam Chokdi,22.34842,70.723515,391,Nyara Gam Chokdi,A,1,391,1
Oscar Sky Park,22.32102681,70.76221862,1130,Oscar Sky Park,A,1,1130,1
P & T Colony/Gitanagar,22.25331,70.800175,11,P & T Colony/Gitanagar,A,1,11,1
P.D.M. College,22.26822,70.79948,15,P.D.M. College,A,1,15,1
P.D.M. Fatak,22.2697124,70.800611,1244,P.D.M. Fatak,A,1,1244,1
PGVCL Region office,22.28127829,70.78631137,1464,PGVCL Region office,A,1,1464,1
Pam. Universe Crossing,22.29837887,70.74909248,349,Pam. Universe Crossing,A,1,349,1
Panchayat Chowk,22.2881,70.7659,156,Panchayat Chowk,A,1,156,1
Panchayat Nagar Chowk,22.2879,70.76531,197,Panchayat Nagar Chowk,A,1,197,1
Panchsheel College,22.27234732,70.87607094,1157,Panchsheel College,A,1,1157,1
Panchsheel Society,22.26249,70.8,13,Panchsheel Society,A,1,13,1
Panchshil Society Community Hall,22.263039,70.797073,1324,Panchshil Society Community Hall,A,1,1324,1
Pandit dindayaal Civil Hospital,22.303124,70.801076,1475,Pandit dindayaal Civil Hospital,A,1,1475,1
Parapipaliya Gaam,22.34682032,70.73916893,393,Parapipaliya Gaam,A,1,393,1
Parapipaliya patiya,22.34330592,70.73667245,1219,Parapipaliya patiya,A,1,1219,1
Pardi Village,22.18239396,70.79876998,3,Pardi Village,A,1,3,1
Parevadi Chowk,22.30668,70.810625,60,Parevadi Chowk,A,1,60,1
Parishram Housing Co. Opearating Service Society,22.27886121,70.7316337,166,Parishram Housing Co. Opearating Service Society,A,1,166,1
Parsana Chowk,22.2587986,70.75511465,413,Parsana Chowk,A,1,413,1
Patel Chowk,22.2653901,70.7808029,365,Patel Chowk,A,1,365,1
Patel Vadi,22.30181,70.81318,254,Patel Vadi,A,1,254,1
Pavitram Heights,22.245919,70.775871,1528,Pavitram Heights,A,1,1528,1
Phulvadi Park,22.2744,70.7725,326,Phulvadi Park,A,1,326,1
Pipaliya hall/Bhakti Hall,22.269085,70.805405,361,Pipaliya hall/Bhakti Hall,A,1,361,1
Popatpara,22.32215667,70.79802,32,Popatpara,A,1,32,1
Popatpara Central Jail,22.31751667,70.80081333,34,Popatpara Central Jail,A,1,34,1
Popatpara Post Office,22.3199203,70.79909205,33,Popatpara Post Office,A,1,33,1
Pradhyuman Park,22.299105,70.839185,247,Pradhyuman Park,A,1,247,1
Prajapati Chowk,22.3231695,70.75994287,1129,Prajapati Chowk,A,1,1129,1
Prasheel Park,22.282983,70.74985,382,Prasheel Park,A,1,382,1
Puneetnagar Main Road,22.245808,70.79381,1533,Puneetnagar Main Road,A,1,1533,1
Punit Nagar,22.246004,70.793765,1086,Punit Nagar,A,1,1086,1
Punit Nagar BRTS bus stop,22.24792415,70.79496339,184,Punit Nagar BRTS bus stop,A,1,184,1
Punitnagar (Near Bajrangwadi),22.31609332,70.77935711,542,Punitnagar (Near Bajrangwadi),A,1,542,1
Pushkardham,22.284185,70.756315,125,Pushkardham,A,1,125,1
R.K. University,22.239685,70.89641,134,R.K. University,A,1,134,1
RMC East Zone Office,22.296485,70.81751,501,RMC East Zone Office,A,1,501,1
RMC Fire Brigade,22.29238626,70.77801883,535,RMC Fire Brigade,A,1,535,1
RTO Khokhadadad,22.19032655,70.83224492,1009,RTO Khokhadadad,A,1,1009,1
RTO office,22.3041683,70.83158595,1576,RTO office,A,1,1576,1
Radha Mira Industrial Estate,22.26372,70.82228,375,Radha Mira Industrial Estate,A,1,375,1
Radha krushn Chowk,22.2558,70.783025,267,Radha krushn Chowk,A,1,267,1
Radhe Park/Gangotri Park,22.31816877,70.77896715,540,Radhe Park/Gangotri Park,A,1,540,1
Radheshyam Gaushala,22.2330138,70.7894101,1081,Radheshyam Gaushala,A,1,1081,1
Radhika Residency,22.2736972,70.8673907,1155,Radhika Residency,A,1,1155,1
Railnagar,22.326,70.79171,29,Railnagar,A,1,29,1
Railway Colony,22.318385,70.785495,213,Railway Colony,A,1,213,1
Raiya Chowk (RMTS),22.30129,70.768285,207,Raiya Chowk (RMTS),A,1,207,1
Raiya Village,22.299,70.751495,348,Raiya Village,A,1,348,1
Raiya Village (Shilpan Onex),22.2956,70.74932,447,Raiya Village (Shilpan Onex),A,1,447,1
Raiyadhar Slum Quarter,22.31582557,70.75516121,320,Raiyadhar Slum Quarter,A,1,320,1
Rajeshree Auto,22.26499,70.799785,22,Rajeshree Auto,A,1,22,1
Rajkamal Petrol Pump,22.24812,70.80018,10,Rajkamal Petrol Pump,A,1,10,1
Rajkot Postal Colony Sub Post Office,22.25448,70.796602,1329,Rajkot Postal Colony Sub Post Office,A,1,1329,1
Ramadevpir Chowk (RMTS),22.311175,70.767085,324,Ramadevpir Chowk (RMTS),A,1,324,1
Ramdevpir Chowk,22.31119,70.767785,209,Ramdevpir Chowk,A,1,209,1
Rameshwar Chowk,22.30278478,70.76104071,1185,Rameshwar Chowk,A,1,1185,1
Ramkrushna Ashram,22.290515,70.794515,118,Ramkrushna Ashram,A,1,118,1
Ramnath Para (B-Division Police Station),22.291275,70.814085,331,Ramnath Para (B-Division Police Station),A,1,331,1
Ramvan,22.26314594,70.83189257,1195,Ramvan,A,1,1195,1
Ramvan Crossing,22.26999422,70.82778175,376,Ramvan Crossing,A,1,376,1
Ranchhod Das Ashram,22.3078,70.81828,1109,Ranchhod Das Ashram,A,1,1109,1
Rangoli Park/Lakshmino Dholo,22.271205,70.74961,103,Rangoli Park/Lakshmino Dholo,A,1,103,1
Ranuja Temple,22.247625,70.8183,69,Ranuja Temple,A,1,69,1
Ratanpar (ramji mandir),22.409685,70.788975,484,Ratanpar (ramji mandir),A,1,484,1
Ratanpar Telephone Exchange,22.40601,70.790105,485,Ratanpar Telephone Exchange,A,1,485,1
Ratnam Residency,22.340923,70.7590985,227,Ratnam Residency,A,1,227,1
Raya Mukti Dham,22.29863461,70.74607564,1380,Raya Mukti Dham,A,1,1380,1
Rayagam Crossing,22.30419162,70.72766214,1210,Rayagam Crossing,A,1,1210,1
Ribda Railway Station,22.12598853,70.80060322,1340,Ribda Railway Station,A,1,1340,1
Ribda chowkdi,22.12923998,70.78306478,1341,Ribda chowkdi,A,1,1341,1
Riverside International School,22.20294659,70.82044171,1012,Riverside International School,A,1,1012,1
Ruda 2,22.28058111,70.75126327,551,Ruda 2,A,1,551,1
Ruda Aavash - Sarita Vihar Society,22.273583,70.7520325,1159,Ruda Aavash - Sarita Vihar Society,A,1,1159,1
Ruda Office,22.308415,70.79672,199,Ruda Office,A,1,199,1
Rular Housing,22.28071,70.758005,126,Rular Housing,A,1,126,1
S.T. Bus Stand,22.29146667,70.80189,20,S.T. Bus Stand,A,1,20,1
S.T. Workshop,22.258215,70.8001,12,S.T. Workshop,A,1,12,1
SGVP Gurukul Chowk,22.23714248,70.78842074,1082,SGVP Gurukul Chowk,A,1,1082,1
SGVP School,22.13390948,70.78602707,1342,SGVP School,A,1,1342,1
SHIV TOWNSHIP,22.25113485,70.77345838,1537,SHIV TOWNSHIP,A,1,1537,1
Sadguru Park,22.2729351,70.8701995,1156,Sadguru Park,A,1,1156,1
Sadhuvasvani School,22.28949,70.76141,343,Sadhuvasvani School,A,1,343,1
Sahakar Society,22.269785,70.808215,367,Sahakar Society,A,1,367,1
Saibaba Circle,22.23709,70.8081,83,Saibaba Circle,A,1,83,1
Sanman Party Plot,22.27677318,70.74238642,1557,Sanman Party Plot,A,1,1557,1
Sanskar City,22.254685,70.781575,268,Sanskar City,A,1,268,1
Sant kesar nur Dargah,22.262203,70.8667985,139,Sant kesar nur Dargah,A,1,139,1
Santiniketan Park,22.30378367,70.7637995,238,Santiniketan Park,A,1,238,1
Santoshinagar,22.32917646,70.78751319,27,Santoshinagar,A,1,27,1
Santoshinagar Railway Crossing,22.332236,70.781711,404,Santoshinagar Railway Crossing,A,1,404,1
Sarathi chemical Plot No.11,22.3698526,70.9603106,1280,Sarathi chemical Plot No.11,A,1,1280,1
Sardar Avenue,22.3226351,70.8185165,1316,Sardar Avenue,A,1,1316,1
Sardar Park,22.245594,70.790002,1532,Sardar Park,A,1,1532,1
Sardar Vallabhbhai Vidhyalay,22.30011,70.818375,252,Sardar Vallabhbhai Vidhyalay,A,1,252,1
Sarita Vihar,22.2779069,70.75283995,1255,Sarita Vihar,A,1,1255,1
Sarita Vihar Society,22.27732035,70.75263676,550,Sarita Vihar Society,A,1,550,1
Sarojeeni Nayadu School (Ambaji Kadva Plot),22.27039506,70.79321964,425,Sarojeeni Nayadu School (Ambaji Kadva Plot),A,1,425,1
Sarvodaya School,22.246036,70.778122,1529,Sarvodaya School,A,1,1529,1
Sarvottam Height,22.2116824,70.7954188,1077,Sarvottam Height,A,1,1077,1
Saswat Heights,22.24282347,70.78940269,1083,Saswat Heights,A,1,1083,1
Satahnuman Temple,22.32597784,70.85402657,1290,Satahnuman Temple,A,1,1290,1
Satellite Chowk,22.33109,70.819792,1549,Satellite Chowk,A,1,1549,1
Satellite Chowk - Marutinagar aproach Road,22.30631,70.825425,339,Satellite Chowk - Marutinagar aproach Road,A,1,339,1
Satyam Chowk,22.24400618,70.78969908,1084,Satyam Chowk,A,1,1084,1
Satyam Park,22.283295,70.81999,151,Satyam Park,A,1,151,1
Satyam Shivam Sundaram,22.32601619,70.77419103,217,Satyam Shivam Sundaram,A,1,217,1
Satyasai Road Crossing,22.273195,70.773025,290,Satyasai Road Crossing,A,1,290,1
Satysai Hospital,22.2786,70.77001,328,Satysai Hospital,A,1,328,1
Saurashtra High School,22.28861011,70.77916256,1546,Saurashtra High School,A,1,1546,1
Saurashtra University,22.28829895,70.74531365,121,Saurashtra University,A,1,121,1
Saurashtra University Gate,22.28682274,70.74928745,1165,Saurashtra University Gate,A,1,1165,1
Sbi Bank Chowk,22.28939,70.774285,153,Sbi Bank Chowk,A,1,153,1
Shaheed Sukhdev Township,22.31838011,70.76294754,1131,Shaheed Sukhdev Township,A,1,1131,1
Shaligram/Khodladham Residency,22.32012399,70.838683,1294,Shaligram/Khodladham Residency,A,1,1294,1
Shanti Industrial,22.32227183,70.84566226,1293,Shanti Industrial,A,1,1293,1
Shantinagar,22.31359985,70.7580428,321,Shantinagar,A,1,321,1
Shapar Veraval,22.157895,70.7915,0,Shapar Veraval,A,1,0,1
Shardabaug,22.3025965,70.795057,201,Shardabaug,A,1,201,1
Sheetal Park,22.31491,70.77698,1134,Sheetal Park,A,1,1134,1
Sheth High School,22.28079,70.805305,43,Sheth High School,A,1,43,1
Shilpan Nova,22.29114583,70.75073879,1261,Shilpan Nova,A,1,1261,1
Shital Park,22.3158406,70.76769086,1269,Shital Park,A,1,1269,1
Shital Park (BMTS),22.31629,70.76768,1563,Shital Park (BMTS),A,1,1563,1
Shitalamajaji Temple,22.1736,70.796215,2,Shitalamajaji Temple,A,1,2,1
Shiv Shakti Colony (RMTS),22.28769,70.75631,159,Shiv Shakti Colony (RMTS),A,1,159,1
Shiva Aastha,22.33592,70.817507,1551,Shiva Aastha,A,1,1551,1
Shivam fual (Bharat Petrol pump),22.2347636,70.8080562,1306,Shivam fual (Bharat Petrol pump),A,1,1306,1
Shivam park / khodal chowk,22.26171448,70.77526874,1233,Shivam park / khodal chowk,A,1,1233,1
Shivdhara Residency,22.316315,70.82691,496,Shivdhara Residency,A,1,496,1
Shree Dharmeshwar Marg Chowk,22.30461749,70.7662929,237,Shree Dharmeshwar Marg Chowk,A,1,237,1
Shree Ram Township,22.262952,70.76003,415,Shree Ram Township,A,1,415,1
Shree Rokadiya Party Lawns,22.21538675,70.81804824,1014,Shree Rokadiya Party Lawns,A,1,1014,1
Shree Yadunandan Chowk,22.3174831,70.81814415,1319,Shree Yadunandan Chowk,A,1,1319,1
Shree city (Munjka gam),22.28988,70.735205,385,Shree city (Munjka gam),A,1,385,1
Shreenathji Industries Plot No.155,22.3654106,70.9635065,1279,Shreenathji Industries Plot No.155,A,1,1279,1
Shri Ram Park,22.328274,70.82145,1548,Shri Ram Park,A,1,1548,1
Shyam Hall,22.26181,70.807915,364,Shyam Hall,A,1,364,1
Silver velly/ ratnam Skay,22.34125428,70.73608742,1218,Silver velly/ ratnam Skay,A,1,1218,1
Silverpark -B Street No.-4,22.338139,70.822277,1553,Silverpark -B Street No.-4,A,1,1553,1
Somanath Society main road,22.2767254,70.8401877,1401,Somanath Society main road,A,1,1401,1
Somnath Real Home Society,22.31482173,70.81920419,1320,Somnath Real Home Society,A,1,1320,1
Somnath main Road / gulabnagar nalu,22.2321874,70.8021342,1303,Somnath main Road / gulabnagar nalu,A,1,1303,1
Sorathiya park,22.2622497,70.77870505,1234,Sorathiya park,A,1,1234,1
Sorathiyawadi Circle,22.281785,70.81079,45,Sorathiyawadi Circle,A,1,45,1
Sorthiya Parivar wadi,22.25818,70.7822,266,Sorthiya Parivar wadi,A,1,266,1
Special School For Boys,22.311705,70.793885,373,Special School For Boys,A,1,373,1
Speedwell Party plot,22.26534278,70.76230777,284,Speedwell Party plot,A,1,284,1
Steam Power Solar Co.,22.16345,70.850846,1004,Steam Power Solar Co.,A,1,1004,1
Sunsine Group Of Institute,22.2655781,70.74593643,521,Sunsine Group Of Institute,A,1,521,1
Surbhi Possible 2,22.2255055,70.7915408,1080,Surbhi Possible 2,A,1,1080,1
Suryamukhi Hanuman Chowk,22.28001,70.78422,258,Suryamukhi Hanuman Chowk,A,1,258,1
Suta Hanuman Temple,22.27889,70.81131,46,Suta Hanuman Temple,A,1,46,1
Swaminarayan Chowk,22.268195,70.793495,310,Swaminarayan Chowk,A,1,310,1
Swaminarayan Temple/Mahila College,22.292715,70.782605,113,Swaminarayan Temple/Mahila College,A,1,113,1
Swaminarayan vidhyalay,22.28003569,70.85587764,1409,Swaminarayan vidhyalay,A,1,1409,1
Swati Park,22.24398,70.807795,86,Swati Park,A,1,86,1
Swati Soc.,22.279305,70.76978,329,Swati Soc.,A,1,329,1
Thebachda - Mahika Patiu,22.27452,70.860685,140,Thebachda - Mahika Patiu,A,1,140,1
Thorala Police Station,22.291,70.823505,502,Thorala Police Station,A,1,502,1
Tramba Village,22.228105,70.910805,132,Tramba Village,A,1,132,1
Trikon baug,22.294985,70.801695,1038,Trikon baug,A,1,1038,1
Trimandir,22.34123725,70.90662184,1286,Trimandir,A,1,1286,1
Trishul Chawk (Mavdi),22.25263,70.77053,1499,Trishul Chawk (Mavdi),A,1,1499,1
Trishul Chowk,22.2698,70.80457,1179,Trishul Chowk,A,1,1179,1
Trishul Chowk (Pipaliya Hall),22.2698,70.8046,360,Trishul Chowk (Pipaliya Hall),A,1,360,1
Tulshi Avenue,22.20761043,70.79822451,1076,Tulshi Avenue,A,1,1076,1
Udgam School,22.245918,70.783951,1530,Udgam School,A,1,1530,1
Uma P.T.C. College,22.26788,70.726095,98,Uma P.T.C. College,A,1,98,1
Umiya Chowk (BRTS),22.26066037,70.78748987,1507,Umiya Chowk (BRTS),A,1,1507,1
V.V.P. Engineering College,22.264205,70.71488,96,V.V.P. Engineering College,A,1,96,1
Vadalia Foods,22.17639859,70.84580496,1007,Vadalia Foods,A,1,1007,1
Vadvajadi Village,22.254905,70.692215,93,Vadvajadi Village,A,1,93,1
Vagal Chowk,22.2460845,70.7718438,1527,Vagal Chowk,A,1,1527,1
Vagudad Village,22.25811,70.69989,94,Vagudad Village,A,1,94,1
Vambay Aavash Yojana crossing,22.271688,70.759904,1493,Vambay Aavash Yojana crossing,A,1,1493,1
Vankaner Chowkdi,22.3602905,70.9383233,1283,Vankaner Chowkdi,A,1,1283,1
Vasant Vatika,22.25984144,70.77178535,1231,Vasant Vatika,A,1,1231,1
Veer Hanumant Township,22.259914,70.75658071,414,Veer Hanumant Township,A,1,414,1
Veer Savarkar Nagar (avadh road),22.27399,70.72394,1554,Veer Savarkar Nagar (avadh road),A,1,1554,1
Velnathpara ( Street No. 17 ),22.33569717,70.81140557,492,Velnathpara ( Street No. 17 ),A,1,492,1
Velnathpara Beginning ( Nr. School No. 71 ),22.334315,70.811875,493,Velnathpara Beginning ( Nr. School No. 71 ),A,1,493,1
Vidhutnagar,22.30298742,70.75842145,1186,Vidhutnagar,A,1,1186,1
Vir narmad township,22.256072,70.796622,1328,Vir narmad township,A,1,1328,1
Virda Vajadi Village,22.26042,70.709795,95,Virda Vajadi Village,A,1,95,1
Vithalbhai radaDiya Chowk,22.2495,70.76412,1525,Vithalbhai radaDiya Chowk,A,1,1525,1
Vithalvav Gaushala,22.257775,70.869375,138,Vithalvav Gaushala,A,1,138,1
Vora Society,22.327,70.7726,218,Vora Society,A,1,218,1
Vrajabhumi Residency,22.333814,70.818232,1550,Vrajabhumi Residency,A,1,1550,1
Vruksh mandir,22.26909,70.732785,99,Vruksh mandir,A,1,99,1
Vrundavan Society,22.27805,70.76202,107,Vrundavan Society,A,1,107,1
Wankaner Society,22.321215,70.78132,397,Wankaner Society,A,1,397,1
Wankaner Society Corner,22.320585,70.78231,215,Wankaner Society Corner,A,1,215,1
Wockhart Hospital,22.288095,70.774895,111,Wockhart Hospital,A,1,111,1
Zawerchand Medhani Tower,22.2879705,70.76812447,155,Zawerchand Medhani Tower,A,1,155,1
baalak hanuman chock,22.30355382,70.81917369,1580,baalak hanuman chock,A,1,1580,1
gokulpark,22.27796147,70.8514392,1407,gokulpark,A,1,1407,1
gulabnagar,22.2355578,70.8050421,1307,gulabnagar,A,1,1307,1
kasturi recidency,22.25858,70.768685,418,kasturi recidency,A,1,418,1
krushna Township,22.25389518,70.77714516,421,krushna Township,A,1,421,1
madhapar gam road crossing,22.34581493,70.76737849,1391,madhapar gam road crossing,A,1,1391,1
matru darshan School,22.252287,70.796922,1330,matru darshan School,A,1,1330,1
new Munjka,22.288705,70.741415,384,new Munjka,A,1,384,1
parshuram indu. street no.3,22.27849515,70.84950973,1406,parshuram indu. street no.3,A,1,1406,1
rampark street no.1,22.28066009,70.84256327,1404,rampark street no.1,A,1,1404,1
sadbhavana complex,22.27713128,70.85526364,1408,sadbhavana complex,A,1,1408,1
samrat industrial Street 1,22.260609,70.796178,1326,samrat industrial Street 1,A,1,1326,1
samrat industrial Street 10,22.258567,70.7962874,1327,samrat industrial Street 10,A,1,1327,1
samrat industries main road crossing,22.262077,70.796147,1325,samrat industries main road crossing,A,1,1325,1
shandar residency,22.2327554,70.8081752,1305,shandar residency,A,1,1305,1
shantidham,22.14440866,70.78911262,1343,shantidham,A,1,1343,1
shyamal Upavan,22.24858383,70.76681022,1526,shyamal Upavan,A,1,1526,1
shyamal upvan,22.24863148,70.76684594,1535,shyamal upvan,A,1,1535,1
somesvasr mahadev munjka gam,22.28738,70.741825,383,somesvasr mahadev munjka gam,A,1,383,1
sundaram city,22.33793789,70.77927348,1430,sundaram city,A,1,1430,1
